id,source,business_name,owner_name,email,phone,website,facebook,instagram,linkedin,twitter,address,city,state,zip_code,latitude,longitude,category,subcategories,rating,review_count,price_level,competitor_name,competitor_rating,competitor_review_count,competitor_website,pain_points,notes,scraped_at,last_updated
c2d0cdf3dd4e,google_places,Severyn Cool Services,,,(239) 248-4446,http://severyncoolservices.com/,,,,,"5790 Yahl St #101, Naples, FL 34109, USA",Naples,FL,34109,26.216698,-81.7770812,hvac,establishment|general_contractor|point_of_interest,5,973,,,0.0,0,,,,2026-03-23T13:07:37.763742,2026-03-23T13:07:37.763742
5141858d05c6,google_places,JP Brett & Sons Air Conditioning,,,(239) 566-3633,https://www.brettairconditioning.com/,,,,,"1955 Elsa St, Naples, FL 34109, USA",Naples,FL,34109,26.2197535,-81.7797212,hvac,establishment|general_contractor|point_of_interest,4.9,555,,,0.0,0,,,,2026-03-23T13:07:39.824669,2026-03-23T13:07:39.824669
576e8cd9c66a,google_places,"Family Air Conditioning and Heating, Inc.",,,(239) 354-4326,https://www.familyairconditioning.net/,,,,,"3899 Mannix Dr Unit 422, Naples, FL 34114, USA",Naples,FL,34114,26.1561663,-81.6784351,hvac,establishment|general_contractor|point_of_interest,5,644,,,0.0,0,,,,2026-03-23T13:07:41.777174,2026-03-23T13:07:41.777174
55157068123b,google_places,Cool Zone Inc,,,(239) 513-9199,https://coolzoneinc.com/?utm_source=gbp,,,,,"2000 J and C Blvd, Naples, FL 34109, USA",Naples,FL,34109,26.2234139,-81.7789291,hvac,establishment|general_contractor|point_of_interest,4.9,334,,,0.0,0,,,,2026-03-23T13:07:43.901174,2026-03-23T13:07:43.901174
32cd60e2f783,google_places,One Way Air,,,(239) 233-4356,https://onewayairfl.com/fort-myers/naples/,,,,,"1415 Panther Ln Suite 565, Naples, FL 34109, USA",Naples,FL,34109,26.2151668,-81.79041819999999,hvac,establishment|general_contractor|point_of_interest,5,38,,,0.0,0,,,,2026-03-23T13:07:45.776360,2026-03-23T13:07:45.776360
4ea816d3e0c0,google_places,One Hour Heating & Air Conditioning,,,(239) 237-3360,https://www.onehourheatandair.com/naples/?utm_source=GMB&utm_medium=organic&utm_campaign=gbp_main,,,,,"4380 Enterprise Ave, Naples, FL 34104, USA",Naples,FL,34104,26.1602683,-81.75606739999999,hvac,establishment|general_contractor|point_of_interest,4.8,3822,,,0.0,0,,,,2026-03-23T13:07:47.889064,2026-03-23T13:07:47.889064
802529800e38,google_places,Good Neighbors Air Conditioning,,,(239) 216-4759,https://goodneighborsair.com/,,,,,"10971 K Nine Drive #100, Bonita Springs, FL 34135, USA",Bonita Springs,FL,34135,26.3262175,-81.7712287,hvac,establishment|general_contractor|point_of_interest,5,147,,,0.0,0,,,,2026-03-23T13:07:49.838535,2026-03-23T13:07:49.838535
7686375107ae,google_places,26 Degree HVAC LLC,,,(239) 264-0324,http://www.26degreehvac.com/,,,,,"101 S Heathwood Dr, Marco Island, FL 34145, USA",Marco Island,FL,34145,25.9358784,-81.7155581,hvac,establishment|general_contractor|point_of_interest,5,91,,,0.0,0,,,,2026-03-23T13:07:51.828724,2026-03-23T13:07:51.828724
2911ba17b625,google_places,Pure Air Conditioning,,,(239) 597-7873,https://getpureair.com/,,,,,"2043 Trade Center Way, Naples, FL 34109, USA",Naples,FL,34109,26.2256369,-81.7765932,hvac,establishment|general_contractor|point_of_interest,4.9,1287,,,0.0,0,,,,2026-03-23T13:07:53.858919,2026-03-23T13:07:53.858919
7659a4eeada4,google_places,First Choice Cooling & Heating,,,(239) 398-6370,http://www.firstchoicecoolingswfl.com/,,,,,"1041 9th St SW, Naples, FL 34117, USA",Naples,FL,34117,26.210486,-81.6252356,hvac,establishment|general_contractor|point_of_interest,5,96,,,0.0,0,,,,2026-03-23T13:07:55.782093,2026-03-23T13:07:55.782093
62fd29737bf4,google_places,Wicked Cool Air Conditioning,,,(239) 256-2577,https://www.wickedcoolac.com/?utm_source=GMBlisting&utm_medium=organic,,,,,"1101 Sun Century Rd, Naples, FL 34110, USA",Naples,FL,34110,26.3058773,-81.7950297,hvac,establishment|general_contractor|point_of_interest,4.9,271,,,0.0,0,,,,2026-03-23T13:07:57.866550,2026-03-23T13:07:57.866550
767d01585bc3,google_places,Dolphin Cooling & Heating Inc,,,(239) 596-9044,https://www.dolphincooling.com/,,,,,"3506 Exchange Ave, Naples, FL 34104, USA",Naples,FL,34104,26.1584211,-81.7646573,hvac,establishment|general_contractor|point_of_interest,4.9,582,,,0.0,0,,,,2026-03-23T13:07:59.870342,2026-03-23T13:07:59.870342
4f929cbf1150,google_places,Conditioned Air Naples,,,(239) 643-2445,http://conditionedair.com/,,,,,"3786 Mercantile Ave, Naples, FL 34104, USA",Naples,FL,34104,26.1654999,-81.7621523,hvac,establishment|general_contractor|point_of_interest,4.8,3959,,,0.0,0,,,,2026-03-23T13:08:01.833450,2026-03-23T13:08:01.833450
cd4a64f43624,google_places,Grande Aire Services Inc.,,,(239) 746-8240,https://www.grandeaire.com/naples/?utm_source=google&utm_medium=organic&utm_campaign=GMBListing-Bonita-Springs-FL,,,,,"3963 Bonita Beach Rd SW, Bonita Springs, FL 34134, USA",Bonita Springs,FL,34134,26.3301463,-81.8183505,hvac,establishment|general_contractor|point_of_interest|store,4.9,943,,,0.0,0,,,,2026-03-23T13:08:03.846414,2026-03-23T13:08:03.846414
a853cafa12a2,google_places,General Air and Plumbing - An Elevate Home Services Company,,,(239) 748-0609,https://www.generalairplumbing.com/,,,,,"28120 Hunters Ridge Blvd, Bonita Springs, FL 34135, USA",Bonita Springs,FL,34135,26.3283744,-81.7460006,hvac,electrician|establishment|general_contractor|plumber|point_of_interest,4.8,98,,,0.0,0,,,,2026-03-23T13:08:05.988665,2026-03-23T13:08:05.988665
beca97796675,google_places,Stone Cold HVAC,,,(239) 285-7905,http://stonecoldhvac.com/,,,,,"2880 14th Ave SE, Naples, FL 34117, USA",Naples,FL,34117,26.2044384,-81.5486085,hvac,establishment|general_contractor|point_of_interest,5,57,,,0.0,0,,,,2026-03-23T13:08:07.854545,2026-03-23T13:08:07.854545
6f91cad0dd95,google_places,Complete Care Air,,,(239) 207-7767,https://www.completecareair.com/,,,,,"670 Goodlette-Frank Rd #225, Naples, FL 34103, USA",Naples,FL,34103,26.1557739,-81.79055749999999,hvac,establishment|general_contractor|point_of_interest,5,959,,,0.0,0,,,,2026-03-23T13:08:09.816343,2026-03-23T13:08:09.816343
d586dc41da0e,google_places,ASH HEATING AND AIR CONDITIONING,,,(239) 595-7382,http://www.ash-ac.com/,,,,,"3232 70th Ave NE, Naples, FL 34120, USA",Naples,FL,34120,26.3594602,-81.5440658,hvac,establishment|general_contractor|point_of_interest,5,55,,,0.0,0,,,,2026-03-23T13:08:11.811054,2026-03-23T13:08:11.811054
0eaad9b1d9b7,google_places,"Comfort Control Air Conditioning Specialists, Inc.",,,(239) 404-4755,https://www.airconditioningcomfort.com/,,,,,"25270 Bernwood Dr #8, Bonita Springs, FL 34135, USA",Bonita Springs,FL,34135,26.3679405,-81.79873309999999,hvac,establishment|general_contractor|point_of_interest,4.9,494,,,0.0,0,,,,2026-03-23T13:08:13.935904,2026-03-23T13:08:13.935904
c3b4016d8af4,google_places,Best Home Services - Naples,,,(239) 677-4312,https://getbest.com/service-area/naples/?utm_source=google-gbp&utm_medium=organic&utm_campaign=*048*best-home-services-naples,,,,,"1455 Rail Head Blvd #1, Naples, FL 34110, USA",Naples,FL,34110,26.3118225,-81.78869159999999,hvac,electrician|establishment|general_contractor|plumber|point_of_interest|store,4.8,7501,,,0.0,0,,,,2026-03-23T13:08:15.926026,2026-03-23T13:08:15.926026
c74f798a876c,google_places,Dr. Kool Air Conditioning,,,(239) 510-9927,https://drkoolac.com/?utm_source=GBP&utm_medium=GBP,,,,,"10911 Harmony Park Dr, Bonita Springs, FL 34135, USA",Bonita Springs,FL,34135,26.3219758,-81.7741989,hvac,establishment|general_contractor|point_of_interest,4.9,273,,,0.0,0,,,,2026-03-23T13:08:20.169194,2026-03-23T13:08:20.169194
d46e414a8b2f,google_places,All Year Cooling & Plumbing,,,(239) 422-9577,https://allyearcooling.com/about/areas-we-service/naples/?utm_source=google&utm_medium=organic&utm_campaign=google_business_profile,,,,,"6203 Janes Ln, Naples, FL 34109, USA",Naples,FL,34109,26.2217927,-81.7783816,hvac,establishment|general_contractor|home_goods_store|plumber|point_of_interest|store,5,48,,,0.0,0,,,,2026-03-23T13:08:22.227462,2026-03-23T13:08:22.227462
2e78ffeb8551,google_places,Florida Comfort Systems,,,(239) 774-5501,http://acbyfcs.com/,,,,,"3887 Mannix Dr STE 625, Naples, FL 34114, USA",Naples,FL,34114,26.1553385,-81.678438,hvac,establishment|general_contractor|point_of_interest|store,4.9,98,,,0.0,0,,,,2026-03-23T13:08:24.140124,2026-03-23T13:08:24.140124
5c5d0329ed5c,google_places,All Star Air Conditioning,,,(239) 597-5007,https://www.facebook.com/staycoolnaples/,,,,,"1597 Pine Ridge Rd, Naples, FL 34109, USA",Naples,FL,34109,26.2120913,-81.7859479,hvac,establishment|general_contractor|point_of_interest,4.9,402,,,0.0,0,,aggregator_only,,2026-03-23T13:08:26.160163,2026-03-23T13:08:26.160163
1059ed91a480,google_places,Dor-Mar Marco Island Service,,,(239) 382-7077,https://www.dormarhvac.com/locations/collier-county-fl/marco-island-fl/,,,,,"950 N Collier Blvd STE 400, Marco Island, FL 34145, USA",Marco Island,FL,34145,25.9549082,-81.7244212,hvac,establishment|general_contractor|point_of_interest,4.9,219,,,0.0,0,,,,2026-03-23T13:08:28.209313,2026-03-23T13:08:28.209313
ecbabace80cf,google_places,"Accurate Comfort Services - Naples, FL",,,(239) 389-9600,https://accuratecomfortservices.com/?utm_source=google&utm_medium=organic&utm_campaign=naples_gbp,,,,,"3401 Progress Ave, Naples, FL 34104, USA",Naples,FL,34104,26.1646253,-81.7657483,hvac,establishment|general_contractor|point_of_interest,4.8,451,,,0.0,0,,,,2026-03-23T13:08:30.206120,2026-03-23T13:08:30.206120
1e6a93aad8c4,google_places,Homepatible,,,(239) 427-1511,https://www.homepatibleca.com/,,,,,"5660 Strand Ct Unit A201, Naples, FL 34110, USA",Naples,FL,34110,26.2744267,-81.74421749999999,hvac,establishment|general_contractor|point_of_interest,4.8,28,,,0.0,0,,,,2026-03-23T13:08:32.176142,2026-03-23T13:08:32.176142
6761a4c558d9,google_places,Southern Comfort Air,,,(239) 642-6642,http://www.southerncomfortairllc.com/,,,,,"994 N Barfield Dr STE 35, Marco Island, FL 34145, USA",Marco Island,FL,34145,25.9602629,-81.724086,hvac,establishment|general_contractor|point_of_interest,4.8,52,,,0.0,0,,,,2026-03-23T13:08:34.202374,2026-03-23T13:08:34.202374
938df3ca0b4f,google_places,KOZAK Air Conditioning & Refrigeration,,,(239) 539-3209,https://www.kozakair.com/?utm_source=google&utm_medium=organic&utm_campaign=GMBListing-Naples-FL,,,,,"3425 Radio Rd STE 217, Naples, FL 34104, USA",Naples,FL,34104,26.1542227,-81.76384259999999,hvac,establishment|general_contractor|point_of_interest,5,89,,,0.0,0,,,,2026-03-23T13:08:36.172597,2026-03-23T13:08:36.172597
73e6cefc4f3c,google_places,Key to Cool,,,(239) 309-2991,http://www.keytocool.com/,,,,,"3900 Mannix Dr STE 106, Naples, FL 34114, USA",Naples,FL,34114,26.1560281,-81.67685929999999,hvac,establishment|general_contractor|point_of_interest|store,4.9,435,,,0.0,0,,,,2026-03-23T13:08:38.189616,2026-03-23T13:08:38.189616
667047a0cba5,google_places,Soave Mechanical,,,(239) 544-4640,https://soavemechanical.com/,,,,,"1141 Sun Century Rd, Naples, FL 34110, USA",Naples,FL,34110,26.3059006,-81.79336889999999,hvac,establishment|general_contractor|point_of_interest,5,4,,,0.0,0,,few_reviews,,2026-03-23T13:08:40.217998,2026-03-23T13:08:40.217998
b19c3be6ce7f,google_places,Nixon Air Conditioning,,,(239) 269-1042,,,,,,"2025 J and C Blvd #5, Naples, FL 34109, USA",Naples,FL,34109,26.2240225,-81.77844449999999,hvac,establishment|general_contractor|point_of_interest|store,4.9,115,,,0.0,0,,no_website,,2026-03-23T13:08:42.207147,2026-03-23T13:08:42.207147
53d76d7a6e4d,google_places,Freeze The Heat Air Conditioning & Duct Cleaning,,,(239) 777-9563,https://freezetheheat.com/,,,,,"Pine Run Rd, Naples, FL 34109, USA",Naples,FL,34109,26.2139475,-81.7582845,hvac,establishment|general_contractor|point_of_interest,5,149,,,0.0,0,,,,2026-03-23T13:08:44.164647,2026-03-23T13:08:44.164647
4e80eb6db740,google_places,Applied Heating and Cooling,,,(239) 251-0199,,,,,,"3609 9th St N, Naples, FL 34103, USA",Naples,FL,34103,26.1897309,-81.8007822,hvac,establishment|general_contractor|point_of_interest,4.7,12,,,0.0,0,,no_website,,2026-03-23T13:08:46.179127,2026-03-23T13:08:46.179127
45cc7d3e0736,google_places,"A5 Air Conditioning, LLC",,,(239) 686-2522,https://a5ac.com/,,,,,"4573 Enterprise Ave #6, Naples, FL 34104, USA",Naples,FL,34104,26.1614489,-81.7540796,hvac,establishment|general_contractor|point_of_interest,5,19,,,0.0,0,,,,2026-03-23T13:08:48.208839,2026-03-23T13:08:48.208839
32eddb06a80b,google_places,Jackson Total Service,,,(239) 643-0923,http://jacksontotal.com/?utm_source=google&utm_medium=organic&utm_campaign=gbp,,,,,"3727 Enterprise Ave # 2, Naples, FL 34104, USA",Naples,FL,34104,26.1611617,-81.7625675,hvac,electrician|establishment|general_contractor|plumber|point_of_interest,4.5,140,,,0.0,0,,,,2026-03-23T13:08:50.194094,2026-03-23T13:08:50.194094
67902a8cbcd5,google_places,Modern Services,,,(239) 597-3178,https://modernservice.com/,,,,,"4100 Corporate Square STE 139, Naples, FL 34104, USA",Naples,FL,34104,26.1539507,-81.755932,hvac,electrician|establishment|general_contractor|plumber|point_of_interest,4.3,32,,,0.0,0,,,,2026-03-23T13:08:52.183706,2026-03-23T13:08:52.183706
706c3e8d8f21,google_places,Coastal Air Conditioning,,,(239) 403-2665,http://www.coastalac.com/,,,,,"5820 Yahl St # 5, Naples, FL 34109, USA",Naples,FL,34109,26.2171891,-81.77722949999999,hvac,establishment|general_contractor|point_of_interest,4.7,10,,,0.0,0,,,,2026-03-23T13:08:54.202217,2026-03-23T13:08:54.202217
b636e570d19b,google_places,Whaley's Air Conditioning Inc - An Elevate Home Services company,,,(239) 992-6453,https://elevatemyhome.com/whaleys-air-conditioning,,,,,"28651 N Diesel Dr #3, Bonita Springs, FL 34135, USA",Bonita Springs,FL,34135,26.3222358,-81.7710006,hvac,establishment|general_contractor|point_of_interest,4.4,128,,,0.0,0,,,,2026-03-23T13:08:56.215782,2026-03-23T13:08:56.215782
3d41eee7022f,google_places,"Condee Cooling & Electric, Inc.",,,(239) 394-5121,http://condee.com/,,,,,"25 Front St, Marco Island, FL 34145, USA",Marco Island,FL,34145,25.9484916,-81.72051880000001,hvac,electrician|establishment|general_contractor|point_of_interest,4.8,797,,,0.0,0,,,,2026-03-23T13:08:58.208156,2026-03-23T13:08:58.208156
063325b7d355,google_places,JL Appliances Services Inc,,,(305) 519-1713,https://jlaairservices.com/,,,,,"658 12th St SE, Naples, FL 34117, USA",Naples,FL,34117,26.218072,-81.58116799999999,hvac,establishment|general_contractor|point_of_interest,5,7,,,0.0,0,,few_reviews,,2026-03-23T13:09:02.440339,2026-03-23T13:09:02.440339
cadecaa7625f,google_places,Naples Comfort Systems By Stahlman Cooling & Heating | Naples Florida Air Conditioning Company,,,(239) 230-2975,https://stahlmanac.com/,,,,,"2160 Keane Ave, Naples, FL 34117, USA",Naples,FL,34117,26.1837387,-81.6500224,hvac,establishment|general_contractor|point_of_interest,4.9,286,,,0.0,0,,,,2026-03-23T13:09:04.429393,2026-03-23T13:09:04.429393
9c687daf8323,google_places,Heating & Air Conditioning,,,(239) 251-1221,,,,,,"26839 S Tamiami Trl, Bonita Springs, FL 34135, USA",Bonita Springs,FL,34135,26.3487916,-81.8051208,hvac,establishment|general_contractor|point_of_interest,5,13,,,0.0,0,,no_website,,2026-03-23T13:09:06.445420,2026-03-23T13:09:06.445420
c09dfeaddf91,google_places,Chace Joseph Air Conditioning,,,(239) 293-1589,http://chacejosephac.com/,,,,,"25613 Old Gaslight Dr, Bonita Springs, FL 34135, USA",Bonita Springs,FL,34135,26.3662277,-81.7904078,hvac,establishment|general_contractor|point_of_interest,4.8,197,,,0.0,0,,,,2026-03-23T13:09:08.554327,2026-03-23T13:09:08.554327
91d5ce24d3f7,google_places,Wilshere AC Repair Naples,,,(239) 347-0260,http://wilshereacrepairnaples.com/,,,,,"3765 Milano Lks Ct, Naples, FL 34114, USA",Naples,FL,34114,26.1186179,-81.68128589999999,hvac,establishment|general_contractor|point_of_interest,5,11,,,0.0,0,,,,2026-03-23T13:09:10.586120,2026-03-23T13:09:10.586120
f226b903b72a,google_places,"Always Be Cooling - Air Conditioning, HVAC Installation, AC Maintenance, Insulation, & Duct Cleaning",,,(239) 777-3972,https://alwaysbecoolingswfl.com/,,,,,"5810 Washington St Unit A, Naples, FL 34109, USA",Naples,FL,34109,26.2175524,-81.77969139999999,hvac,establishment|general_contractor|point_of_interest,4.9,115,,,0.0,0,,,,2026-03-23T13:09:12.521807,2026-03-23T13:09:12.521807
953e7295e639,google_places,"Accurate Comfort Services - Marco Island, FL",,,(239) 389-9600,https://accuratecomfortservices.com/,,,,,"118 S Barfield Dr, Marco Island, FL 34145, USA",Marco Island,FL,34145,25.9334138,-81.7004044,hvac,establishment|general_contractor|point_of_interest,4.9,100,,,0.0,0,,,,2026-03-23T13:09:14.567995,2026-03-23T13:09:14.567995
ee4cea2c8f99,google_places,Speedy Air Conditioning Contractors,,,(239) 977-0145,,,,,,"7557 Campania Way, Naples, FL 34104, USA",Naples,FL,34104,26.1397974,-81.71456210000001,hvac,establishment|general_contractor|point_of_interest,4.8,25,,,0.0,0,,no_website,,2026-03-23T13:09:16.454425,2026-03-23T13:09:16.454425
df6cebb3c046,google_places,Comfort Caddies,,,(239) 402-4099,https://www.comfortcaddies.com/,,,,,"28620 N Diesel Dr, Bonita Springs, FL 34135, USA",Bonita Springs,FL,34135,26.3233576,-81.77165269999999,hvac,establishment|general_contractor|point_of_interest,4.9,295,,,0.0,0,,,,2026-03-23T13:09:18.483800,2026-03-23T13:09:18.483800
197ba408dde3,google_places,Heating and AC Experts,,,(239) 737-2671,,,,,,"4139 Tamiami Trl E, Naples, FL 34112, USA",Naples,FL,34112,26.1166558,-81.7549911,hvac,establishment|general_contractor|point_of_interest,5,4,,,0.0,0,,no_website|few_reviews,,2026-03-23T13:09:20.475803,2026-03-23T13:09:20.475803
095572a7d0df,google_places,FosterCare Heating and Air,,,(239) 572-1693,http://www.fostercareair.com/,,,,,"256 Tahiti Rd, Marco Island, FL 34145, USA",Marco Island,FL,34145,25.9434714,-81.7175292,hvac,establishment|general_contractor|point_of_interest,5,15,,,0.0,0,,,,2026-03-23T13:09:22.451703,2026-03-23T13:09:22.451703
98789e052cbe,google_places,Dor-Mar Naples Air Conditioning Repair and Service,,,(239) 376-1051,https://www.dormarhvac.com/locations/collier-county-fl/naples-fl/,,,,,"3887 Mannix Dr STE 606, Naples, FL 34114, USA",Naples,FL,34114,26.1553385,-81.678438,hvac,establishment|general_contractor|point_of_interest,5,14,,,0.0,0,,,,2026-03-23T13:09:24.482680,2026-03-23T13:09:24.482680
5258a92df435,google_places,Hvac Supply,,,(239) 390-8144,http://www.hvacsupplyinc.com/,,,,,"28730 S Cargo Ct, Bonita Springs, FL 34135, USA",Bonita Springs,FL,34135,26.3217599,-81.77413070000001,hvac,establishment|point_of_interest,5,25,,,0.0,0,,,,2026-03-23T13:09:26.608542,2026-03-23T13:09:26.608542
736864e2b103,google_places,Low Temp A/C LLC,,,(239) 380-2343,,,,,,"2049 49th Terrace SW, Naples, FL 34116, USA",Naples,FL,34116,26.1906368,-81.70667859999999,hvac,establishment|general_contractor|point_of_interest,5,2,,,0.0,0,,no_website|few_reviews,,2026-03-23T13:09:28.552699,2026-03-23T13:09:28.552699
65394c81a75e,google_places,Downeast Air Heating & Cooling,,,(239) 530-2665,https://www.downeastair.net/,,,,,"1495 Rail Head Blvd # 8, Naples, FL 34110, USA",Naples,FL,34110,26.3129806,-81.7867842,hvac,establishment|general_contractor|point_of_interest,4.8,395,,,0.0,0,,,,2026-03-23T13:09:32.786319,2026-03-23T13:09:32.786319
5bf5ecfafeb2,google_places,Carden-239 HVAC Repair Cooling & Heating,,,(239) 221-0219,,,,,,"10924 K Nine Drive Unit 303, Bonita Springs, FL 34135, USA",Bonita Springs,FL,34135,26.3269495,-81.77359,hvac,establishment|general_contractor|point_of_interest,5,1,,,0.0,0,,no_website|few_reviews,,2026-03-23T13:09:33.056167,2026-03-23T13:09:33.056167
ad8e370bda05,google_places,Naples Air Conditioning LLC,,,(239) 430-9333,http://www.naples-air-conditioning.com/,,,,,"2880 14th St N, Naples, FL 34103, USA",Naples,FL,34103,26.1804756,-81.7921312,hvac,establishment|general_contractor|point_of_interest,4.7,12,,,0.0,0,,,,2026-03-23T13:09:36.983307,2026-03-23T13:09:36.983307
f6cd91dfbc2d,google_places,Total Health of Naples Chiropractor,,,(239) 260-1426,http://www.totalhealthnaples.com/,,,,,"10661 Airport-Pulling Rd STE 11, Naples, FL 34109, USA",Naples,FL,34109,26.2697812,-81.7710776,chiropractor,doctor|establishment|health|physiotherapist|point_of_interest,5,524,,,0.0,0,,,,2026-03-23T13:17:59.003616,2026-03-23T13:17:59.003616
8b6f0d6fea32,google_places,Chiropractic of Naples,,,(239) 315-4805,https://chiropracticofnaples.com/,,,,,"3940 Radio Rd #105, Naples, FL 34104, USA",Naples,FL,34104,26.1528968,-81.76034539999999,chiropractor,establishment|health|point_of_interest,5,146,,,0.0,0,,,,2026-03-23T13:18:00.958157,2026-03-23T13:18:00.958157
89ddf67ea7f0,google_places,"Gulf Coast Spine & Sport, LLC",,,(239) 745-5561,https://www.gcssnaples.com/,,,,,"2240 Venetian Ct Unit A, Naples, FL 34109, USA",Naples,FL,34109,26.2415767,-81.7734261,chiropractor,establishment|health|point_of_interest,5,312,,,0.0,0,,,,2026-03-23T13:18:03.110085,2026-03-23T13:18:03.110085
844eebaa8a9f,google_places,Bonita Chiropractic Center,,,(239) 992-5311,https://bonitachiro.com/,,,,,"16517 Vanderbilt Dr, Bonita Springs, FL 34134, USA",Bonita Springs,FL,34134,26.3262712,-81.8193738,chiropractor,establishment|health|point_of_interest,5,376,,,0.0,0,,,,2026-03-23T13:18:04.991479,2026-03-23T13:18:04.991479
8f126ca3aeeb,google_places,The Joint Chiropractic,,,(239) 312-5887,https://www.thejoint.com/florida/naples/naples-27070,,,,,"2338 Pine Ridge Rd, Naples, FL 34109, USA",Naples,FL,34109,26.2086607,-81.77015209999999,chiropractor,establishment|health|point_of_interest,4.6,406,,,0.0,0,,,,2026-03-23T13:18:06.991228,2026-03-23T13:18:06.991228
64f7ff820482,google_places,Bohn Chiropractic Clinic,,,(239) 947-3330,http://www.bohnchiropractic.com/,,,,,"27970 Crown Lake Blvd #1, Bonita Springs, FL 34135, USA",Bonita Springs,FL,34135,26.3312759,-81.8041839,chiropractor,establishment|health|point_of_interest,4.6,44,,,0.0,0,,,,2026-03-23T13:18:09.063511,2026-03-23T13:18:09.063511
cc6c9e6c86e8,google_places,Harmony Health Clinic,,,(239) 596-4801,https://www.flharmony.com/?utm_source=google&utm_medium=wix_google_business_profile&utm_campaign=5512543068153032393,,,,,"538 10th St N, Naples, FL 34102, USA",Naples,FL,34102,26.1534658,-81.79466219999999,chiropractor,doctor|establishment|health|hospital|local_government_office|point_of_interest,5,393,,,0.0,0,,,,2026-03-23T13:18:11.034109,2026-03-23T13:18:11.034109
a7549ec2bf4d,google_places,Gulfside Chiropractic Health Center,,,(239) 908-9762,http://gulfsidechiropractic.com/,,,,,"9138 Bonita Beach Rd SE, Bonita Springs, FL 34135, USA",Bonita Springs,FL,34135,26.3322367,-81.799294,chiropractor,establishment|health|physiotherapist|point_of_interest,5,136,,,0.0,0,,,,2026-03-23T13:18:13.091346,2026-03-23T13:18:13.091346
fcf70d587786,google_places,Bergtold Chiropractic Naples Florida,,,(239) 593-6788,https://www.bergtoldchiropractic.com/,,,,,"5385 Park Central Ct Suite 1, Naples, FL 34109, USA",Naples,FL,34109,26.2136921,-81.7677801,chiropractor,establishment|health|point_of_interest,5,303,,,0.0,0,,,,2026-03-23T13:18:14.995172,2026-03-23T13:18:14.995172
8eef7e03a3db,google_places,Feel Amazing Spine and Joint Institute Naples,,,(239) 330-1000,https://feelamazing.com/,,,,,"3031 Airport-Pulling Rd N, Naples, FL 34105, USA",Naples,FL,34105,26.1831175,-81.76820359999999,chiropractor,doctor|establishment|health|point_of_interest,4.8,354,,,0.0,0,,,,2026-03-23T13:18:17.067181,2026-03-23T13:18:17.067181
4d22cc943fdb,google_places,Marco Chiropractic & Medical Rehab Clinic,,,(239) 394-7221,https://mcmrclinic.com/,,,,,"606 Bald Eagle Dr STE 201, Marco Island, FL 34145, USA",Marco Island,FL,34145,25.9525877,-81.7246583,chiropractor,establishment|health|point_of_interest,5,110,,,0.0,0,,,,2026-03-23T13:18:18.982384,2026-03-23T13:18:18.982384
5ec2f9c34ed7,google_places,"Naples Family Health & Wellness: Dr. Bryan Kalodish, DC",,,(239) 692-8160,http://www.napleschiropractor.net/,,,,,"2390 Tamiami Trl N STE 102, Naples, FL 34103, USA",Naples,FL,34103,26.1755523,-81.7991969,chiropractor,establishment|health|point_of_interest,4.9,89,,,0.0,0,,,,2026-03-23T13:18:21.018068,2026-03-23T13:18:21.018068
842675acba58,google_places,"Synergy Integrated Healthcare, Inc",,,(239) 263-3330,https://synergynaples.com/,,,,,"13020 Livingston Rd #14, Naples, FL 34105, USA",Naples,FL,34105,26.2090654,-81.7507954,chiropractor,doctor|establishment|health|hospital|physiotherapist|point_of_interest,5,857,,,0.0,0,,,,2026-03-23T13:18:23.017826,2026-03-23T13:18:23.017826
d2bd83ee4a8c,google_places,Back in Motion,,,(239) 598-2244,http://www.backinmotionnaples.com/,,,,,"5695 Naples Blvd, Naples, FL 34109, USA",Naples,FL,34109,26.2151154,-81.7748603,chiropractor,establishment|health|point_of_interest,5,324,,,0.0,0,,,,2026-03-23T13:18:25.035256,2026-03-23T13:18:25.035256
94280b120024,google_places,North Trail Chiropractic Clinic,,,(239) 261-5222,http://www.northtrailchiropractic.com/,,,,,"4530 Tamiami Trl N Suite 2, Naples, FL 34103, USA",Naples,FL,34103,26.201996,-81.79971200000001,chiropractor,establishment|health|point_of_interest,4.9,49,,,0.0,0,,,,2026-03-23T13:18:27.071349,2026-03-23T13:18:27.071349
078c9c854f2b,google_places,Coastal Chiropractic Health Solutions,,,(239) 390-0607,http://www.coastalchiropractichealth.com/,,,,,"9200 Bonita Beach Rd SE #203, Bonita Springs, FL 34135, USA",Bonita Springs,FL,34135,26.331645,-81.7979671,chiropractor,doctor|establishment|health|point_of_interest,5,112,,,0.0,0,,,,2026-03-23T13:18:29.092472,2026-03-23T13:18:29.092472
de08167a0fc4,google_places,Dr. Mike Merkt - The Collective Chiropractic Naples,,,(239) 610-1442,https://drmikemerkt.com/,,,,,"3411 Tamiami Trl N #204, Naples, FL 34103, USA",Naples,FL,34103,26.189082,-81.8005125,chiropractor,establishment|health|point_of_interest,5,60,,,0.0,0,,,,2026-03-23T13:18:31.010547,2026-03-23T13:18:31.010547
8fdb924c77c3,google_places,Where Spines Align Chiropractic,,,(239) 970-2211,http://www.wsachiro.com/,,,,,"1770 San Marco Rd STE 203, Marco Island, FL 34145, USA",Marco Island,FL,34145,25.9347768,-81.7002594,chiropractor,establishment|health|point_of_interest,5,37,,,0.0,0,,,,2026-03-23T13:18:33.008750,2026-03-23T13:18:33.008750
313a91a4b35b,google_places,iChiropractic and Wellness,,,(239) 300-1756,https://www.ichiropractic.net/,,,,,"3200 Bailey Ln Suite 225, Naples, FL 34105, USA",Naples,FL,34105,26.1904433,-81.769025,chiropractor,doctor|establishment|health|point_of_interest,5,40,,,0.0,0,,,,2026-03-23T13:18:35.006287,2026-03-23T13:18:35.006287
eb545b6273e1,google_places,"Bechtol Chiropractic & Wellness Center, Inc.",,,(239) 352-8633,https://www.doctornikki.com/,,,,,"3845 Beck Blvd #807, Naples, FL 34114, USA",Naples,FL,34114,26.1553242,-81.68356039999999,chiropractor,doctor|establishment|health|point_of_interest,4.8,22,,,0.0,0,,,,2026-03-23T13:18:37.051231,2026-03-23T13:18:37.051231
941e24d25c37,google_places,"Richard Hiler, DC DABCN",,,(239) 330-1000,https://www.feelamazing.com/,,,,,"3031 Airport-Pulling Rd N, Naples, FL 34105, USA",Naples,FL,34105,26.1830806,-81.7675122,chiropractor,establishment|health|point_of_interest,5,103,,,0.0,0,,,,2026-03-23T13:18:41.336879,2026-03-23T13:18:41.336879
3846c818be91,google_places,Innovative Pain and Performance,,,(239) 596-4800,https://innovativepainandperformance.com/book-an-appointment/,,,,,"2355 Vanderbilt Beach Rd #146, Naples, FL 34109, USA",Naples,FL,34109,26.2457162,-81.77215869999999,chiropractor,establishment|health|point_of_interest,5,190,,,0.0,0,,,,2026-03-23T13:18:43.283442,2026-03-23T13:18:43.283442
6dac362fb8d8,google_places,Widom Chiropractic and Associates,,,(239) 596-9050,https://www.widomchiropractic.com/,,,,,"5385 Park Central Ct, Naples, FL 34109, USA",Naples,FL,34109,26.213692,-81.76778,chiropractor,establishment|health|point_of_interest,4.9,37,,,0.0,0,,,,2026-03-23T13:18:45.291980,2026-03-23T13:18:45.291980
74a0b87b23a1,google_places,Trinity Chiropractic - *Chiropractor Naples* Voted Best Of Naples Award 2021 & 2024,,,(239) 597-6099,http://trinitychironaples.com/,,,,,"2515 Northbrooke Plaza Dr #102, Naples, FL 34119, USA",Naples,FL,34119,26.2747486,-81.7382981,chiropractor,establishment|health|point_of_interest,4.9,532,,,0.0,0,,,,2026-03-23T13:18:47.347255,2026-03-23T13:18:47.347255
1bd9098aa566,google_places,Johnston Spinal Care,,,(239) 596-2225,https://www.596back.com/,,,,,"10651 Tamiami Trl N, Naples, FL 34108, USA",Naples,FL,34108,26.2684639,-81.80203329999999,chiropractor,establishment|health|point_of_interest,4.9,108,,,0.0,0,,,,2026-03-23T13:18:49.293235,2026-03-23T13:18:49.293235
2ef86503c19b,google_places,The Collective Chiropractic,,,(239) 610-3378,http://thecollectivechiropractic.com/,,,,,"3411 Tamiami Trl N #204, Naples, FL 34103, USA",Naples,FL,34103,26.189082,-81.8005125,chiropractor,establishment|health|point_of_interest,5,19,,,0.0,0,,,,2026-03-23T13:18:51.365282,2026-03-23T13:18:51.365282
bebdc189c75a,google_places,"Ramon A. Gonzalez, DC",,,(239) 591-2220,https://www.drgonzalezchiro.com/,,,,,"5617 Naples Blvd, Naples, FL 34109, USA",Naples,FL,34109,26.2144247,-81.7747941,chiropractor,establishment|health|point_of_interest,4.2,35,,,0.0,0,,,,2026-03-23T13:18:53.315924,2026-03-23T13:18:53.315924
65296dc9f433,google_places,Optimal Health Clinic,,,(239) 947-1177,https://www.chiropractorbonitasprings.com/,,,,,"28315 S Tamiami Trl #101, Bonita Springs, FL 34134, USA",Bonita Springs,FL,34134,26.3244502,-81.8050086,chiropractor,establishment|health|physiotherapist|point_of_interest,4.9,93,,,0.0,0,,,,2026-03-23T13:18:55.361525,2026-03-23T13:18:55.361525
a20c7597b63a,google_places,Dr. Gary Gendron,,,(239) 947-1177,https://www.chiropractorbonitasprings.com/about-us/meet-the-chiropractors/meet-dr.-gary-gendron.html,,,,,"28315 S Tamiami Trl #101, Bonita Springs, FL 34134, USA",Bonita Springs,FL,34134,26.3244686,-81.8049927,chiropractor,establishment|health|point_of_interest,5,17,,,0.0,0,,,,2026-03-23T13:18:57.463184,2026-03-23T13:18:57.463184
3a8f3f27f97c,google_places,Corrective Spinal Care of Florida,,,(239) 558-5866,https://www.flspinalcare.com/,,,,,"12950 Trade Way Four Unit 106, Bonita Springs, FL 34135, USA",Bonita Springs,FL,34135,26.3295527,-81.740212,chiropractor,establishment|health|point_of_interest,5,31,,,0.0,0,,,,2026-03-23T13:18:59.320561,2026-03-23T13:18:59.320561
2539299b3133,google_places,Wills Chiropractic,,,(239) 331-6060,https://www.willschiropractic.com/,,,,,"1000 Tamiami Trl N STE 402, Naples, FL 34102, USA",Naples,FL,34102,26.1603884,-81.7973914,chiropractor,establishment|health|point_of_interest,5,78,,,0.0,0,,,,2026-03-23T13:19:01.328413,2026-03-23T13:19:01.328413
8a4f73ab0388,google_places,LIFEstrength Health Center,,,(239) 774-5433,https://www.lifestrengthhealthcenter.com/,,,,,"4280 Tamiami Trl E Suite 102, Naples, FL 34112, USA",Naples,FL,34112,26.1154428,-81.7563117,chiropractor,establishment|health|point_of_interest|store,5,217,,,0.0,0,,,,2026-03-23T13:19:03.337290,2026-03-23T13:19:03.337290
59b935034aa0,google_places,Parkway Chiropractic and Rehab,,,(239) 236-2390,https://parkwaychiroandrehab.com/,,,,,"4930 Golden Gate Pkwy B, Naples, FL 34116, USA",Naples,FL,34116,26.179469,-81.7070909,chiropractor,establishment|health|point_of_interest,5,53,,,0.0,0,,,,2026-03-23T13:19:05.366673,2026-03-23T13:19:05.366673
c935fd4a1ebf,google_places,Access Injury Centers,,,(239) 455-4181,https://www.drcancelosa.com/,,,,,"12975 Collier Blvd #107, Naples, FL 34116, USA",Naples,FL,34116,26.2100937,-81.6887643,chiropractor,establishment|health|point_of_interest,4.4,27,,,0.0,0,,,,2026-03-23T13:19:07.328786,2026-03-23T13:19:07.328786
ff4c9fabe6c4,google_places,Amazing Wellness,,,(239) 880-2273,https://amazingwellness.com/,,,,,"13800 Tamiami Trl N Suite 113, Naples, FL 34110, USA",Naples,FL,34110,26.2971371,-81.8015547,chiropractor,establishment|health|point_of_interest,4.9,208,,,0.0,0,,,,2026-03-23T13:19:09.355163,2026-03-23T13:19:09.355163
4b521a3d3afd,google_places,Vanderbilt Chiropractic Clinic,,,(239) 596-8800,https://www.anapleschiropractor.com/,,,,,"4530 Tamiami Trl N Suite 2, Naples, FL 34103, USA",Naples,FL,34103,26.201996,-81.79971200000001,chiropractor,establishment|health|point_of_interest,5,51,,,0.0,0,,,,2026-03-23T13:19:11.414623,2026-03-23T13:19:11.414623
b1d16a1a1732,google_places,Fisher Chiropractic,,,(239) 944-7303,https://www.drfisherchiropractic.com/,,,,,"1001 Crosspointe Dr # 1, Naples, FL 34110, USA",Naples,FL,34110,26.2736534,-81.79934390000001,chiropractor,establishment|health|point_of_interest,5,33,,,0.0,0,,,,2026-03-23T13:19:13.353331,2026-03-23T13:19:13.353331
6fbd5c3a1225,google_places,Gutierrez William P. Dc,,,(239) 642-0076,http://drwilliamgutierrez.com/,,,,,"1110 N Collier Blvd, Marco Island, FL 34145, USA",Marco Island,FL,34145,25.9562032,-81.72066590000001,chiropractor,establishment|health|point_of_interest,4.7,12,,,0.0,0,,,,2026-03-23T13:19:15.472512,2026-03-23T13:19:15.472512
05cc8e06efac,google_places,"Jepsen Chiropractic Wellness Center, Inc.",,,(239) 465-0656,https://www.jepsenchiropractic.com/,,,,,"3960 Radio Rd STE 110, Naples, FL 34104, USA",Naples,FL,34104,26.1529232,-81.759244,chiropractor,establishment|health|point_of_interest,5,99,,,0.0,0,,,,2026-03-23T13:19:17.388091,2026-03-23T13:19:17.388091
1262a5d8c853,google_places,Chiropractic Pain Solutions,,,(239) 361-2023,https://chiropracticpainsolutions.com/,,,,,"7740 Preserve Ln Suite #9, Naples, FL 34119, USA",Naples,FL,34119,26.273769,-81.7116602,chiropractor,doctor|establishment|health|point_of_interest,5,83,,,0.0,0,,,,2026-03-23T13:19:19.342257,2026-03-23T13:19:19.342257
2a1910b1c80d,google_places,Bennett Chiropractic and Wellness Center,,,(239) 763-1288,http://www.bennett-chiropractic.com/,,,,,"3725 Bonita Beach Rd SW #4, Bonita Springs, FL 34134, USA",Bonita Springs,FL,34134,26.330091,-81.81433439999999,chiropractor,establishment|health|point_of_interest,4.8,58,,,0.0,0,,,,2026-03-23T13:19:23.545477,2026-03-23T13:19:23.545477
b9b82d90fccc,google_places,Pine Ridge Chiropractic & Acupuncture Clinic - Dr. Alex Krischanowski,,,(239) 330-1000,http://pineridgechiro.com/,,,,,"3031 Airport-Pulling Rd N, Naples, FL 34105, USA",Naples,FL,34105,26.1830808,-81.7682141,chiropractor,establishment|health|point_of_interest,5,20,,,0.0,0,,,,2026-03-23T13:19:25.577821,2026-03-23T13:19:25.577821
374d0b3a7c2d,google_places,Collier Chiropractic and Accident Rehabilitation Center,,,(239) 594-8995,https://collierchiro.com/,,,,,"2180 Immokalee Rd STE 201, Naples, FL 34110, USA",Naples,FL,34110,26.2717054,-81.7781554,chiropractor,establishment|health|point_of_interest,5,23,,,0.0,0,,,,2026-03-23T13:19:27.596201,2026-03-23T13:19:27.596201
c4b2e2baeafa,google_places,Maxliving Naples Chiropractic,,,(239) 300-0885,https://www.maxliving.com/clinic/maxliving-chiropractic-naples,,,,,"6308 Trail Blvd, Naples, FL 34108, USA",Naples,FL,34108,26.214503,-81.79961899999999,chiropractor,doctor|establishment|health|point_of_interest,4.9,232,,,0.0,0,,,,2026-03-23T13:19:29.771258,2026-03-23T13:19:29.771258
c3a53ac832dd,google_places,Carter Chiropractic & Wellness,,,(239) 784-8895,http://www.drsusancarter.com,,,,,"1205 Piper Blvd STE 103, Naples, FL 34110, USA",Naples,FL,34110,26.2739665,-81.7696368,chiropractor,establishment|health|point_of_interest,5,45,,,0.0,0,,,,2026-03-23T13:19:31.625835,2026-03-23T13:19:31.625835
4b7bf8cbaa3e,google_places,MICHAEL C SHAFFER DC PA,,,(239) 793-3200,https://drmichaelshaffer.com/,,,,,"671 Goodlette Rd N STE 160, Naples, FL 34102, USA",Naples,FL,34102,26.1558761,-81.7914473,chiropractor,establishment|health|point_of_interest,5,29,,,0.0,0,,,,2026-03-23T13:19:33.597566,2026-03-23T13:19:33.597566
6c4cf942baac,google_places,Moon Family Health Center,,,(239) 261-1387,http://www.moonfamilyhealth.com/,,,,,"1190 Pine Ridge Rd #1, Naples, FL 34108, USA",Naples,FL,34108,26.2107576,-81.7963796,chiropractor,establishment|health|point_of_interest,4.8,19,,,0.0,0,,,,2026-03-23T13:19:35.666788,2026-03-23T13:19:35.666788
2f3d2dd11416,google_places,PAUL D BAUMGARDNER DC PA,,,(239) 793-3200,http://pauldbaumgardnerdc.com/,,,,,"671 Goodlette-Frank Rd STE 160, Naples, FL 34102, USA",Naples,FL,34102,26.1560205,-81.7915627,chiropractor,establishment|health|point_of_interest,5,24,,,0.0,0,,,,2026-03-23T13:19:37.572140,2026-03-23T13:19:37.572140
c1bf48972067,google_places,"Kevin Mikalaitis, DC",,,(239) 394-7221,https://www.marcoislandchiropractor.com/,,,,,"606 Bald Eagle Dr STE 201, Marco Island, FL 34145, USA",Marco Island,FL,34145,25.9525877,-81.7246583,chiropractor,establishment|health|point_of_interest,5,41,,,0.0,0,,,,2026-03-23T13:19:39.639760,2026-03-23T13:19:39.639760
c24aeb7ccfd5,google_places,Amanda M Ferguson DC Paradise Coast Chiropractic,,,(239) 734-3779,https://www.paradisecoastchiro.com/,,,,,"840 111th Ave N #7, Naples, FL 34108, USA",Naples,FL,34108,26.2719025,-81.804529,chiropractor,establishment|health|point_of_interest,5,20,,,0.0,0,,,,2026-03-23T13:19:41.608327,2026-03-23T13:19:41.608327
d46cd733a5c2,google_places,A Better Life Chiropractic,,,(239) 263-3369,http://www.abetterlifechiropractic.com/,,,,,"661 Goodlette-Frank Rd STE 108, Naples, FL 34102, USA",Naples,FL,34102,26.1551993,-81.7913895,chiropractor,establishment|health|point_of_interest,4.9,75,,,0.0,0,,,,2026-03-23T13:19:43.610682,2026-03-23T13:19:43.610682
acb27d990558,google_places,Naples Community Injury Center,,,(239) 631-5445,https://www.naplescommunityinjurycenter.com/?utm_source=google&utm_medium=organic&utm_campaign=gmb-listing-naples,,,,,"1660 Medical Blvd Suite 302, Naples, FL 34110, USA",Naples,FL,34110,26.2738325,-81.78692389999999,chiropractor,doctor|establishment|health|physiotherapist|point_of_interest,5,131,,,0.0,0,,,,2026-03-23T13:19:45.676426,2026-03-23T13:19:45.676426
b40d419960f5,google_places,"Cade Copeland, DC",,,(239) 774-5433,https://www.lifestrengthhealthcenter.com/,,,,,"4280 Tamiami Trl E Suite 102, Naples, FL 34112, USA",Naples,FL,34112,26.1155227,-81.7563493,chiropractor,establishment|health|point_of_interest,5,22,,,0.0,0,,,,2026-03-23T13:19:47.604353,2026-03-23T13:19:47.604353
d0132af00696,google_places,Alternative Health & Healing Center,,,(239) 592-7767,https://www.mynapleschiropractor.com/,,,,,"13240 Tamiami Trl N #204, Naples, FL 34110, USA",Naples,FL,34110,26.2913203,-81.8005115,chiropractor,establishment|health|point_of_interest,4.9,183,,,0.0,0,,,,2026-03-23T13:19:49.619631,2026-03-23T13:19:49.619631
5f155782de2e,google_places,"Matthew R. Bergtold, DC",,,(239) 315-4694,http://www.drmattbergtold.com/,,,,,"700 2nd Ave N STE 203, Naples, FL 34102, USA",Naples,FL,34102,26.1490091,-81.798132,chiropractor,establishment|health|point_of_interest,5,11,,,0.0,0,,,,2026-03-23T13:19:51.633009,2026-03-23T13:19:51.633009
a2fc18fd9543,google_places,Moses Chiropractic Clinic,,,(239) 774-2444,http://www.moseschiropracticclinic.com/,,,,,"2389 Davis Blvd, Naples, FL 34104, USA",Naples,FL,34104,26.1389405,-81.7752428,chiropractor,establishment|health|point_of_interest,5,9,,,0.0,0,,few_reviews,,2026-03-23T13:19:53.614248,2026-03-23T13:19:53.614248
0525e09b66dc,google_places,Elite Performance and Chiropractic,,,(239) 301-8115,http://www.eliteperformanceandchiropractic.com/,,,,,"26251 S Tamiami Trl #13, Bonita Springs, FL 34134, USA",Bonita Springs,FL,34134,26.3594022,-81.8065534,chiropractor,establishment|health|point_of_interest,5,24,,,0.0,0,,,,2026-03-23T13:19:55.614481,2026-03-23T13:19:55.614481
cb787af3cc0b,google_places,"Opsal Family Chiropractic, Inc",,,(239) 963-9949,https://opsalfamilychiropractic.com/,,,,,"8965 Tamiami Trl N, Naples, FL 34108, USA",Naples,FL,34108,26.2524503,-81.8025272,chiropractor,establishment|health|point_of_interest,5,59,,,0.0,0,,,,2026-03-23T13:19:57.751078,2026-03-23T13:19:57.751078
56ee29f940f5,google_places,Caliber Wellness,,,(239) 658-2665,http://caliberwellness.com/,,,,,"1575 Pine Ridge Rd STE 6, Naples, FL 34109, USA",Naples,FL,34109,26.2132172,-81.7870081,chiropractor,doctor|establishment|health|point_of_interest|spa,4.9,207,,,0.0,0,,,,2026-03-23T13:19:59.658348,2026-03-23T13:19:59.658348
a3b513341a51,google_places,Collier Chiropractic Care,,,(239) 374-2080,https://www.collierchiropracticcare.com/,,,,,"1001 Crosspointe Dr # 1, Naples, FL 34110, USA",Naples,FL,34110,26.2736532,-81.79932500000001,chiropractor,establishment|health|point_of_interest,5,28,,,0.0,0,,,,2026-03-23T13:20:01.653946,2026-03-23T13:20:01.653946
24e95a5bc5b2,google_places,ChiroQueen,,,(239) 963-1733,https://chiroqueen.com/,,,,,"2335 Tamiami Trl N STE 408, Naples, FL 34103, USA",Naples,FL,34103,26.1758991,-81.8006042,chiropractor,establishment|health|point_of_interest,5,6,,,0.0,0,,few_reviews,,2026-03-23T13:20:05.646514,2026-03-23T13:20:05.646514
b4129ed71798,google_places,Family Chiropractic and Sports Rehab,,,(239) 990-7068,http://www.chiropracticswfl.com/,,,,,"5072 Annunciation Cir Ste 310, Ave Maria, FL 34142, USA",Ave Maria,FL,34142,26.3364887,-81.4360533,chiropractor,establishment|health|point_of_interest,5,125,,,0.0,0,,,,2026-03-23T13:20:09.868015,2026-03-23T13:20:09.868015
779245196ed1,google_places,Gulfshore Chiropractic Clinics,,,(239) 948-5727,https://www.gulfshorechiropractic.com/?utm_source=gmb_auth,,,,,"24830 Burnt Pine Dr Suite #3, Bonita Springs, FL 34134, USA",Bonita Springs,FL,34134,26.3780611,-81.81005569999999,chiropractor,establishment|health|point_of_interest,4.9,204,,,0.0,0,,,,2026-03-23T13:20:11.889487,2026-03-23T13:20:11.889487
ad37c384448d,google_places,Spine And Sports Chiropractic,,,(239) 774-4041,http://chiropracticnaples.com/,,,,,"12250 Tamiami Trl E # 206, Naples, FL 34113, USA",Naples,FL,34113,26.067833,-81.70818950000002,chiropractor,establishment|health|point_of_interest,4,8,,,0.0,0,,few_reviews,,2026-03-23T13:20:13.867636,2026-03-23T13:20:13.867636
b6013efe331a,google_places,Kong Chiropractic Wellness Care,,,(239) 450-4865,https://kongchiro.com/,,,,,"2500 Tamiami Trl N #222, Naples, FL 34103, USA",Naples,FL,34103,26.1768915,-81.799171,chiropractor,establishment|health|point_of_interest,5,15,,,0.0,0,,,,2026-03-23T13:20:15.863952,2026-03-23T13:20:15.863952
31f41df241ff,google_places,Chiromed Injury Clinic,,,(239) 284-1322,https://chiromedinjuryclinic.com/,,,,,"4670 Cardinal Way suite 301, Naples, FL 34112, USA",Naples,FL,34112,26.1086342,-81.7515688,chiropractor,establishment|health|point_of_interest,4.9,39,,,0.0,0,,,,2026-03-23T13:20:17.909871,2026-03-23T13:20:17.909871
3e1b17724a08,google_places,Thrive Chiropractic -Chiropractor in Naples,,,(239) 325-8226,https://www.thrivenaples.com/homepage/#,,,,,"5644 Tavilla Cir # 104, Naples, FL 34110, USA",Naples,FL,34110,26.2738156,-81.74450689999999,chiropractor,establishment|health|point_of_interest,4.8,134,,,0.0,0,,,,2026-03-23T13:20:19.932703,2026-03-23T13:20:19.932703
3cde9ee048bf,google_places,Darrow Chiropractic Clinic,,,(239) 263-1557,,,,,,"3400 Tamiami Trl N # 104, Naples, FL 34103, USA",Naples,FL,34103,26.1873499,-81.7993479,chiropractor,establishment|health|point_of_interest,5,2,,,0.0,0,,no_website|few_reviews,,2026-03-23T13:20:21.902699,2026-03-23T13:20:21.902699
9a9df4da2d75,google_places,Premier Naples Chiropractic,,,(239) 799-7168,https://www.premiernapleschiro.com/,,,,,"12268 Tamiami Trl E Unit 302, Naples, FL 34113, USA",Naples,FL,34113,26.0674896,-81.7074379,chiropractor,establishment|health|point_of_interest,5,9,,,0.0,0,,few_reviews,,2026-03-23T13:20:23.874617,2026-03-23T13:20:23.874617
e84147075b0d,google_places,"David A. Dishauzi, DC",,,(239) 261-5222,http://www.northtrailchiropractic.com/,,,,,"4530 Tamiami Trl N, Naples, FL 34103, USA",Naples,FL,34103,26.201966,-81.799695,chiropractor,establishment|health|point_of_interest,5,6,,,0.0,0,,few_reviews,,2026-03-23T13:20:25.892424,2026-03-23T13:20:25.892424
1b279a9d6157,google_places,Chiro Acu Health,,,(239) 214-0214,https://chiroacuhealth.com/,,,,,"1213 Piper Blvd STE 202, Naples, FL 34110, USA",Naples,FL,34110,26.2739682,-81.7684206,chiropractor,establishment|health|point_of_interest,5,144,,,0.0,0,,,,2026-03-23T13:20:27.942134,2026-03-23T13:20:27.942134
21bb69146999,google_places,Dr. Chad Wills,,,(239) 331-6060,https://www.willschiropractic.com/meet-dr-chad-wills.html,,,,,"1000 Tamiami Trl N STE 402, Naples, FL 34102, USA",Naples,FL,34102,26.1604212,-81.7973348,chiropractor,establishment|health|point_of_interest,5,1,,,0.0,0,,few_reviews,,2026-03-23T13:20:29.867860,2026-03-23T13:20:29.867860
5dcc1bda79c6,google_places,Chiropractic Healthcare-Naples: Clatworthy Erin DC,,,(239) 774-4041,,,,,,"12250 Tamiami Trl E, Naples, FL 34113, USA",Naples,FL,34113,26.0679222,-81.7082202,chiropractor,establishment|health|point_of_interest,5,2,,,0.0,0,,no_website|few_reviews,,2026-03-23T13:20:31.912942,2026-03-23T13:20:31.912942
28bcb295314b,google_places,Chiropractic Healthcare-Naples,,,(239) 206-3810,,,,,,"5019 Tamiami Trl E, Naples, FL 34113, USA",Naples,FL,34113,26.1068571,-81.74681679999999,chiropractor,establishment|health|point_of_interest,0,0,,,0.0,0,,no_website|no_reviews|no_rating,,2026-03-23T13:20:33.888054,2026-03-23T13:20:33.888054
3955ba9b27c6,google_places,Goldman Chiropractic,,,(239) 254-0003,http://goldmanchiropracticnaples.com/,,,,,"1001 Crosspointe Dr # 1, Naples, FL 34110, USA",Naples,FL,34110,26.2736081,-81.7993059,chiropractor,doctor|establishment|health|point_of_interest,4.8,26,,,0.0,0,,,,2026-03-23T13:20:38.119457,2026-03-23T13:20:38.119457
