[
  {
    "name": "D' Roofing Group",
    "phone": "(239) 256-7788",
    "website": "",
    "address": "323 Arpt Rd S, Naples, FL 34104, USA",
    "rating": 4.9,
    "review_count": 46,
    "category": "roofing contractor",
    "lat": 26.1555209,
    "lon": -81.76594829999999,
    "has_website": false
  },
  {
    "name": "Roof Repair in Naples",
    "phone": "(239) 268-5470",
    "website": "",
    "address": "3784 Domestic Ave, Naples, FL 34104, USA",
    "rating": 4.9,
    "review_count": 23,
    "category": "roofing contractor",
    "lat": 26.1619252,
    "lon": -81.7620688,
    "has_website": false
  },
  {
    "name": "A&Y Auto Service LLC / Tires 24 hours/ Llantas",
    "phone": "(239) 467-1152",
    "website": "",
    "address": "4000 Bayshore Dr STE D, Naples, FL 34112, USA",
    "rating": 5,
    "review_count": 82,
    "category": "auto repair",
    "lat": 26.1162216,
    "lon": -81.77086440000001,
    "has_website": false
  },
  {
    "name": "Naples Air Conditioning LLC",
    "phone": "(239) 430-9333",
    "website": "http://www.naples-air-conditioning.com/",
    "address": "2880 14th St N, Naples, FL 34103, USA",
    "rating": 4.7,
    "review_count": 12,
    "category": "HVAC repair",
    "lat": 26.1804756,
    "lon": -81.7921312,
    "has_website": true
  },
  {
    "name": "Florida Health Dental - Naples",
    "phone": "(239) 427-3595",
    "website": "https://flhealthdental.com/",
    "address": "2664 Tamiami Trl E, Naples, FL 34112, USA",
    "rating": 4.6,
    "review_count": 11,
    "category": "dental office",
    "lat": 26.1306825,
    "lon": -81.7720349,
    "has_website": true
  },
  {
    "name": "R Acres Plumbing Co, LLC",
    "phone": "(239) 598-0800",
    "website": "http://www.acresplumbing.com/",
    "address": "5701 Houchin St Suite 1, Naples, FL 34109, USA",
    "rating": 4.8,
    "review_count": 54,
    "category": "plumbing contractor",
    "lat": 26.2157964,
    "lon": -81.7793437,
    "has_website": true
  },
  {
    "name": "Hancock Plumbing Inc",
    "phone": "(239) 352-1853",
    "website": "http://www.hancockplumbing.com/",
    "address": "4573 Exchange Ave #6, Naples, FL 34104, USA",
    "rating": 4.9,
    "review_count": 84,
    "category": "plumbing contractor",
    "lat": 26.1593093,
    "lon": -81.75383380000001,
    "has_website": true
  },
  {
    "name": "Golden Plumbing",
    "phone": "(239) 899-4653",
    "website": "https://www.goldenplumbingfl.com/",
    "address": "2614 9th St N #101, Naples, FL 34103, USA",
    "rating": 5,
    "review_count": 70,
    "category": "plumbing contractor",
    "lat": 26.1777574,
    "lon": -81.7991782,
    "has_website": true
  },
  {
    "name": "Pros Plumbing & Rooter",
    "phone": "(239) 977-7767",
    "website": "https://prosplumbing.com/florida/naples-plumber/",
    "address": "3437 Westview Dr Suite 9, Naples, FL 34104, USA",
    "rating": 5,
    "review_count": 69,
    "category": "plumbing contractor",
    "lat": 26.1508918,
    "lon": -81.7634655,
    "has_website": true
  },
  {
    "name": "PlumbingPro Naples",
    "phone": "(239) 212-1120",
    "website": "https://plumbingpro.pro/naples-fl",
    "address": "4110 Enterprise Ave Suite A-210, Naples, FL 34104, USA",
    "rating": 5,
    "review_count": 21,
    "category": "plumbing contractor",
    "lat": 26.1597572,
    "lon": -81.7584492,
    "has_website": true
  },
  {
    "name": "Bill Jones Roofing and Repairs",
    "phone": "(239) 643-5659",
    "website": "https://billjonesroofing.com/",
    "address": "4505 Mercantile Ave, Naples, FL 34104, USA",
    "rating": 4.9,
    "review_count": 76,
    "category": "roofing contractor",
    "lat": 26.1665372,
    "lon": -81.7543075,
    "has_website": true
  },
  {
    "name": "Gulf Coast Roofing Co Inc",
    "phone": "(239) 597-9007",
    "website": "http://www.gcroofing.com/",
    "address": "2101 J and C Blvd, Naples, FL 34109, USA",
    "rating": 4.8,
    "review_count": 56,
    "category": "roofing contractor",
    "lat": 26.2241284,
    "lon": -81.77650299999999,
    "has_website": true
  },
  {
    "name": "Mighty Fine Roofing",
    "phone": "(239) 944-0063",
    "website": "https://mightyfineroofing.com/",
    "address": "4811 Tamiami Trl E, Naples, FL 34112, USA",
    "rating": 5,
    "review_count": 99,
    "category": "roofing contractor",
    "lat": 26.1093939,
    "lon": -81.74936,
    "has_website": true
  },
  {
    "name": "Grant Construction & Roofing, Inc",
    "phone": "(239) 595-2257",
    "website": "https://grantroofs.com/",
    "address": "4850 Tamiami Trl N Suite 301, Naples, FL 34103, USA",
    "rating": 4.9,
    "review_count": 97,
    "category": "roofing contractor",
    "lat": 26.2053285,
    "lon": -81.7999311,
    "has_website": true
  },
  {
    "name": "Native Sun Pest Control Inc",
    "phone": "(239) 431-7808",
    "website": "https://www.nativesunpestcontrol.net/",
    "address": "5790 Yahl St Ste 102, Naples, FL 34109, USA",
    "rating": 4.9,
    "review_count": 65,
    "category": "pest control",
    "lat": 26.2166547,
    "lon": -81.7770973,
    "has_website": true
  },
  {
    "name": "Personalized Pest Control, Inc.",
    "phone": "(239) 455-8444",
    "website": "https://personalizedpestcontrolnaples.com/",
    "address": "3888 Mannix Dr STE 308, Naples, FL 34114, USA",
    "rating": 4.7,
    "review_count": 55,
    "category": "pest control",
    "lat": 26.1560281,
    "lon": -81.67685929999999,
    "has_website": true
  },
  {
    "name": "My Pest Defense",
    "phone": "(239) 601-2933",
    "website": "http://www.mypestdefensenaples.com/",
    "address": "4700 32nd Ave SW, Naples, FL 34116, USA",
    "rating": 4.9,
    "review_count": 48,
    "category": "pest control",
    "lat": 26.1697707,
    "lon": -81.6999475,
    "has_website": true
  },
  {
    "name": "Antimidators Inc. Pest Control",
    "phone": "(239) 986-0470",
    "website": "http://www.antimidators.com/",
    "address": "991 17th St SW, Naples, FL 34117, USA",
    "rating": 5,
    "review_count": 66,
    "category": "pest control",
    "lat": 26.2112773,
    "lon": -81.6414557,
    "has_website": true
  },
  {
    "name": "Med Spa on 5th",
    "phone": "(239) 331-3693",
    "website": "https://www.medspaon5th.com/",
    "address": "300 5th Ave S S 209, Naples, FL 34102, USA",
    "rating": 4.8,
    "review_count": 17,
    "category": "med spa",
    "lat": 26.1406988,
    "lon": -81.80272939999999,
    "has_website": true
  },
  {
    "name": "Tru Glo Medspa",
    "phone": "(239) 919-7009",
    "website": "https://www.truglomedspa.com/",
    "address": "1250 Pine Ridge Rd Suite 101B, Naples, FL 34108, USA",
    "rating": 4.8,
    "review_count": 40,
    "category": "med spa",
    "lat": 26.2110782,
    "lon": -81.79467919999999,
    "has_website": true
  },
  {
    "name": "Cloud 9 Med Spa Naples",
    "phone": "(239) 253-1325",
    "website": "http://cloud9medspanaples.com/",
    "address": "1012 Goodlette Rd N Suite 101, Naples, FL 34102, USA",
    "rating": 5,
    "review_count": 79,
    "category": "med spa",
    "lat": 26.1607051,
    "lon": -81.79061209999999,
    "has_website": true
  },
  {
    "name": "Kenzi Medical and Aesthetics Group",
    "phone": "(239) 544-5369",
    "website": "https://www.kenzispa.com/",
    "address": "900 6th Ave S STE 303, Naples, FL 34102, USA",
    "rating": 4.8,
    "review_count": 62,
    "category": "med spa",
    "lat": 26.1405985,
    "lon": -81.7943718,
    "has_website": true
  },
  {
    "name": "Gulf Coast Medspa",
    "phone": "(239) 682-1885",
    "website": "http://www.gcmedspa.com/",
    "address": "6845 Collier Blvd #103, Naples, FL 34114, USA",
    "rating": 5,
    "review_count": 66,
    "category": "med spa",
    "lat": 26.0668829,
    "lon": -81.6981275,
    "has_website": true
  },
  {
    "name": "Von & Co Medical Aesthetics Studio",
    "phone": "(239) 448-3897",
    "website": "http://www.vonandcoaesthetics.com/?utm_campaign=gmb",
    "address": "2120 Tamiami Trl N, Naples, FL 34102, USA",
    "rating": 5,
    "review_count": 79,
    "category": "med spa",
    "lat": 26.1727469,
    "lon": -81.798501,
    "has_website": true
  },
  {
    "name": "Naples Family Health & Wellness: Dr. Bryan Kalodish, DC",
    "phone": "(239) 692-8160",
    "website": "http://www.napleschiropractor.net/",
    "address": "2390 Tamiami Trl N STE 102, Naples, FL 34103, USA",
    "rating": 4.9,
    "review_count": 89,
    "category": "chiropractic",
    "lat": 26.1755523,
    "lon": -81.7991969,
    "has_website": true
  },
  {
    "name": "A Better Life Chiropractic",
    "phone": "(239) 263-3369",
    "website": "http://www.abetterlifechiropractic.com/",
    "address": "661 Goodlette-Frank Rd STE 108, Naples, FL 34102, USA",
    "rating": 4.9,
    "review_count": 75,
    "category": "chiropractic",
    "lat": 26.1551993,
    "lon": -81.7913895,
    "has_website": true
  },
  {
    "name": "Wills Chiropractic",
    "phone": "(239) 331-6060",
    "website": "https://www.willschiropractic.com/",
    "address": "1000 Tamiami Trl N STE 402, Naples, FL 34102, USA",
    "rating": 5,
    "review_count": 78,
    "category": "chiropractic",
    "lat": 26.1603884,
    "lon": -81.7973914,
    "has_website": true
  },
  {
    "name": "iChiropractic and Wellness",
    "phone": "(239) 300-1756",
    "website": "https://www.ichiropractic.net/",
    "address": "3200 Bailey Ln Suite 225, Naples, FL 34105, USA",
    "rating": 5,
    "review_count": 40,
    "category": "chiropractic",
    "lat": 26.1904433,
    "lon": -81.769025,
    "has_website": true
  },
  {
    "name": "North Trail Chiropractic Clinic",
    "phone": "(239) 261-5222",
    "website": "http://www.northtrailchiropractic.com/",
    "address": "4530 Tamiami Trl N Suite 2, Naples, FL 34103, USA",
    "rating": 4.9,
    "review_count": 49,
    "category": "chiropractic",
    "lat": 26.201996,
    "lon": -81.79971200000001,
    "has_website": true
  },
  {
    "name": "Vanderbilt Chiropractic Clinic",
    "phone": "(239) 596-8800",
    "website": "https://www.anapleschiropractor.com/",
    "address": "4530 Tamiami Trl N Suite 2, Naples, FL 34103, USA",
    "rating": 5,
    "review_count": 51,
    "category": "chiropractic",
    "lat": 26.201996,
    "lon": -81.79971200000001,
    "has_website": true
  },
  {
    "name": "Jepsen Chiropractic Wellness Center, Inc.",
    "phone": "(239) 465-0656",
    "website": "https://www.jepsenchiropractic.com/",
    "address": "3960 Radio Rd STE 110, Naples, FL 34104, USA",
    "rating": 5,
    "review_count": 99,
    "category": "chiropractic",
    "lat": 26.1529232,
    "lon": -81.759244,
    "has_website": true
  },
  {
    "name": "The Collective Chiropractic",
    "phone": "(239) 610-3378",
    "website": "http://thecollectivechiropractic.com/",
    "address": "3411 Tamiami Trl N #204, Naples, FL 34103, USA",
    "rating": 5,
    "review_count": 19,
    "category": "chiropractic",
    "lat": 26.189082,
    "lon": -81.8005125,
    "has_website": true
  },
  {
    "name": "Dr. Mike Merkt - The Collective Chiropractic Naples",
    "phone": "(239) 610-1442",
    "website": "https://drmikemerkt.com/",
    "address": "3411 Tamiami Trl N #204, Naples, FL 34103, USA",
    "rating": 5,
    "review_count": 60,
    "category": "chiropractic",
    "lat": 26.189082,
    "lon": -81.8005125,
    "has_website": true
  },
  {
    "name": "Supreme Auto Service",
    "phone": "(239) 234-6900",
    "website": "https://supremeautoservicenaples.com/",
    "address": "938 4th Ave N, Naples, FL 34102, USA",
    "rating": 5,
    "review_count": 91,
    "category": "auto repair",
    "lat": 26.1515871,
    "lon": -81.7955054,
    "has_website": true
  },
  {
    "name": "Naples Mechanics",
    "phone": "(239) 399-0928",
    "website": "https://naplesmechanics.com/",
    "address": "3784 Domestic Ave f, Naples, FL 34104, USA",
    "rating": 5,
    "review_count": 50,
    "category": "auto repair",
    "lat": 26.1617556,
    "lon": -81.76207529999999,
    "has_website": true
  },
  {
    "name": "Chet's Courtesy Automotive",
    "phone": "(239) 262-4565",
    "website": "https://chetscourtesyauto.com/",
    "address": "1863 Tamiami Trl N, Naples, FL 34102, USA",
    "rating": 4.8,
    "review_count": 94,
    "category": "auto repair",
    "lat": 26.1692704,
    "lon": -81.8000203,
    "has_website": true
  },
  {
    "name": "Brian Ring's Auto Repair",
    "phone": "(239) 596-4138",
    "website": "http://brianringsautorepair.weebly.com/",
    "address": "4484 Enterprise Ave, Naples, FL 34104, USA",
    "rating": 4.9,
    "review_count": 82,
    "category": "auto repair",
    "lat": 26.1603512,
    "lon": -81.7552424,
    "has_website": true
  },
  {
    "name": "JR's Auto Repair",
    "phone": "(239) 598-1309",
    "website": "https://www.jrsautorepairnaplesfl.com/",
    "address": "6089 Lee Ann Ln, Naples, FL 34109, USA",
    "rating": 4.6,
    "review_count": 61,
    "category": "auto repair",
    "lat": 26.2203908,
    "lon": -81.7774115,
    "has_website": true
  },
  {
    "name": "Naples Roofing Inc",
    "phone": "(239) 384-1340",
    "website": "http://naplesroofinginc.com/",
    "address": "971 Airport-Pulling Rd N, Naples, FL 34104, USA",
    "rating": 5,
    "review_count": 4,
    "category": "roofing contractor",
    "lat": 26.1415216,
    "lon": -81.790492,
    "has_website": true
  },
  {
    "name": "Complete Care Air",
    "phone": "(239) 207-7767",
    "website": "https://www.completecareair.com/",
    "address": "670 Goodlette-Frank Rd #225, Naples, FL 34103, USA",
    "rating": 5,
    "review_count": 959,
    "category": "HVAC repair",
    "lat": 26.1557739,
    "lon": -81.79055749999999,
    "has_website": true
  },
  {
    "name": "Pure Air Conditioning",
    "phone": "(239) 597-7873",
    "website": "https://getpureair.com/",
    "address": "2043 Trade Center Way, Naples, FL 34109, USA",
    "rating": 4.9,
    "review_count": 1287,
    "category": "HVAC repair",
    "lat": 26.2256369,
    "lon": -81.7765932,
    "has_website": true
  },
  {
    "name": "JP Brett & Sons Air Conditioning",
    "phone": "(239) 566-3633",
    "website": "https://www.brettairconditioning.com/",
    "address": "1955 Elsa St, Naples, FL 34109, USA",
    "rating": 4.9,
    "review_count": 555,
    "category": "HVAC repair",
    "lat": 26.2197535,
    "lon": -81.7797212,
    "has_website": true
  },
  {
    "name": "All Star Air Conditioning",
    "phone": "(239) 597-5007",
    "website": "https://www.facebook.com/staycoolnaples/",
    "address": "1597 Pine Ridge Rd, Naples, FL 34109, USA",
    "rating": 4.9,
    "review_count": 402,
    "category": "HVAC repair",
    "lat": 26.2120913,
    "lon": -81.7859479,
    "has_website": true
  },
  {
    "name": "Family Air Conditioning and Heating, Inc.",
    "phone": "(239) 354-4326",
    "website": "https://www.familyairconditioning.net/",
    "address": "3899 Mannix Dr Unit 422, Naples, FL 34114, USA",
    "rating": 5,
    "review_count": 644,
    "category": "HVAC repair",
    "lat": 26.1561663,
    "lon": -81.6784351,
    "has_website": true
  },
  {
    "name": "One Hour Heating & Air Conditioning",
    "phone": "(239) 237-3360",
    "website": "https://www.onehourheatandair.com/naples/?utm_source=GMB&utm_medium=organic&utm_campaign=gbp_main",
    "address": "4380 Enterprise Ave, Naples, FL 34104, USA",
    "rating": 4.8,
    "review_count": 3822,
    "category": "HVAC repair",
    "lat": 26.1602683,
    "lon": -81.75606739999999,
    "has_website": true
  },
  {
    "name": "Conditioned Air Naples",
    "phone": "(239) 643-2445",
    "website": "http://conditionedair.com/",
    "address": "3786 Mercantile Ave, Naples, FL 34104, USA",
    "rating": 4.8,
    "review_count": 3959,
    "category": "HVAC repair",
    "lat": 26.1654999,
    "lon": -81.7621523,
    "has_website": true
  },
  {
    "name": "JVR Air Conditioning Services Inc.",
    "phone": "(239) 777-5380",
    "website": "http://www.airconditioningbyjvr.com/",
    "address": "3832 Exchange Ave, Naples, FL 34104, USA",
    "rating": 4.9,
    "review_count": 217,
    "category": "HVAC repair",
    "lat": 26.1585259,
    "lon": -81.7617258,
    "has_website": true
  },
  {
    "name": "Cool Zone Inc",
    "phone": "(239) 513-9199",
    "website": "https://coolzoneinc.com/?utm_source=gbp",
    "address": "2000 J and C Blvd, Naples, FL 34109, USA",
    "rating": 4.9,
    "review_count": 334,
    "category": "HVAC repair",
    "lat": 26.2234139,
    "lon": -81.7789291,
    "has_website": true
  },
  {
    "name": "Accurate Comfort Services - Naples, FL",
    "phone": "(239) 389-9600",
    "website": "https://accuratecomfortservices.com/?utm_source=google&utm_medium=organic&utm_campaign=naples_gbp",
    "address": "3401 Progress Ave, Naples, FL 34104, USA",
    "rating": 4.8,
    "review_count": 451,
    "category": "HVAC repair",
    "lat": 26.1646253,
    "lon": -81.7657483,
    "has_website": true
  },
  {
    "name": "Key to Cool",
    "phone": "(239) 309-2991",
    "website": "http://www.keytocool.com/",
    "address": "3900 Mannix Dr STE 106, Naples, FL 34114, USA",
    "rating": 4.9,
    "review_count": 435,
    "category": "HVAC repair",
    "lat": 26.1560281,
    "lon": -81.67685929999999,
    "has_website": true
  },
  {
    "name": "Plumbing, Cooling & Electrical Nerds",
    "phone": "(239) 427-2107",
    "website": "https://plumbingnerds.com/?utm_source=google&utm_medium=organic&utm_campaign=GMBListing-NAPLES-FL",
    "address": "660 Tamiami Trl N Unit 22, Naples, FL 34102, USA",
    "rating": 4.8,
    "review_count": 240,
    "category": "HVAC repair",
    "lat": 26.1550594,
    "lon": -81.7962318,
    "has_website": true
  },
  {
    "name": "Wicked Cool Air Conditioning",
    "phone": "(239) 256-2577",
    "website": "https://www.wickedcoolac.com/?utm_source=GMBlisting&utm_medium=organic",
    "address": "1101 Sun Century Rd, Naples, FL 34110, USA",
    "rating": 4.9,
    "review_count": 271,
    "category": "HVAC repair",
    "lat": 26.3058773,
    "lon": -81.7950297,
    "has_website": true
  },
  {
    "name": "Park Family and Cosmetic Dentistry",
    "phone": "(239) 206-1500",
    "website": "https://myparkdental.com/",
    "address": "690 Goodlette-Frank Rd, Naples, FL 34102, USA",
    "rating": 4.9,
    "review_count": 1985,
    "category": "dental office",
    "lat": 26.1562559,
    "lon": -81.79044760000001,
    "has_website": true
  },
  {
    "name": "Gulfview Dental",
    "phone": "(239) 261-7291",
    "website": "https://www.gulfviewdentistry.com/",
    "address": "501 Goodlette-Frank Rd STE B202, Naples, FL 34102, USA",
    "rating": 4.9,
    "review_count": 1189,
    "category": "dental office",
    "lat": 26.1539098,
    "lon": -81.7913215,
    "has_website": true
  },
  {
    "name": "Towne Dental Naples",
    "phone": "(239) 399-0925",
    "website": "https://townedentalnaples.com/",
    "address": "3751 Tamiami Trl E, Naples, FL 34112, USA",
    "rating": 4.9,
    "review_count": 917,
    "category": "dental office",
    "lat": 26.1212478,
    "lon": -81.75855600000001,
    "has_website": true
  },
  {
    "name": "Naples Dental Care",
    "phone": "(239) 234-5284",
    "website": "https://www.dentistofnaples.com/",
    "address": "4325 Tamiami Trl N, Naples, FL 34103, USA",
    "rating": 4.5,
    "review_count": 222,
    "category": "dental office",
    "lat": 26.2000118,
    "lon": -81.802356,
    "has_website": true
  },
  {
    "name": "Naples Dental Studio",
    "phone": "(239) 919-6930",
    "website": "https://naplesdentalstudio.com/",
    "address": "Brennan Medical Building, 730 Goodlette Rd N #206, Naples, FL 34102, USA",
    "rating": 4.8,
    "review_count": 207,
    "category": "dental office",
    "lat": 26.1582281,
    "lon": -81.7872754,
    "has_website": true
  },
  {
    "name": "Harbor Dental",
    "phone": "(239) 331-5660",
    "website": "http://harbordentalfl.com/",
    "address": "2905 Davis Blvd, Naples, FL 34104, USA",
    "rating": 5,
    "review_count": 211,
    "category": "dental office",
    "lat": 26.1388604,
    "lon": -81.7703049,
    "has_website": true
  },
  {
    "name": "Gulf Shore Cosmetic and Family Dentistry",
    "phone": "(239) 788-1629",
    "website": "http://cosmeticdentistryofnaples.com/?utm_source=gbp&utm_medium=organic&utm_campaign=yext_listing",
    "address": "225 Banyan Blvd Unit 200, Naples, FL 34102, USA",
    "rating": 4.9,
    "review_count": 649,
    "category": "dental office",
    "lat": 26.162722,
    "lon": -81.807959,
    "has_website": true
  },
  {
    "name": "Banyan Dental Care",
    "phone": "(239) 396-3917",
    "website": "http://banyandentalcarenaples.com/?utm_source=gbp&utm_medium=organic&utm_campaign=yext_listing",
    "address": "1250 Tamiami Trl N Unit 107, Naples, FL 34102, USA",
    "rating": 4.9,
    "review_count": 151,
    "category": "dental office",
    "lat": 26.162912,
    "lon": -81.79762699999999,
    "has_website": true
  }
]